{"type":"FeatureCollection","features":[{"id":"0","type":"Feature","properties":{"status":"Active","class":"餐廳","subclass":"general_restaurant","name":"肉老大頂級肉品涮涮鍋","sub_name":"敦南創始店","description":"以下優惠二擇一:\n內用 9折優惠、外帶 95折優惠\n4人同行送一盤7oz肉盤 (豬or牛)\n打卡送肉、蝦","expiration":"自動展延","start_date":null,"shop_url":null,"contract_url":null,"address":"台北市大安區敦化南路二段331巷16號"},"geometry":{"type":"Point","coordinates":[121.549826,25.022635]}},{"id":"1","type":"Feature","properties":{"status":"Inactive","class":"餐廳","subclass":"general_restaurant","name":"肉老大頂級肉品涮涮鍋","sub_name":"東區店","description":"以下優惠二擇一:\n內用 9折優惠、外帶 95折優惠\n4人同行送一盤7oz肉盤 (豬or牛)\n打卡送肉、蝦","expiration":"自動展延","start_date":null,"shop_url":null,"contract_url":null,"address":"台北市大安區敦化南路一段190巷48號"},"geometry":{"type":"Point","coordinates":[121.54673,25.042521]}},{"id":"2","type":"Feature","properties":{"status":"Active","class":"餐廳","subclass":"general_restaurant","name":"肉老大頂級肉品涮涮鍋","sub_name":"淡水店","description":"以下優惠二擇一:\n內用 9折優惠、外帶 95折優惠\n4人同行送一盤7oz肉盤 (豬or牛)\n打卡送肉、蝦","expiration":"自動展延","start_date":null,"shop_url":null,"contract_url":null,"address":"新北市淡水區民權路157號"},"geometry":{"type":"Point","coordinates":[121.460055,25.136078]}},{"id":"3","type":"Feature","properties":{"status":"Active","class":"餐廳","subclass":"general_restaurant","name":"肉老大頂級肉品涮涮鍋","sub_name":"中和店","description":"以下優惠二擇一:\n內用 9折優惠、外帶 95折優惠\n4人同行送一盤7oz肉盤 (豬or牛)\n打卡送肉、蝦","expiration":"自動展延","start_date":null,"shop_url":null,"contract_url":null,"address":"新北市中和區中和路380號2樓"},"geometry":{"type":"Point","coordinates":[121.510757,25.002113]}},{"id":"4","type":"Feature","properties":{"status":"Active","class":"餐廳","subclass":"general_restaurant","name":"EZFive","sub_name":null,"description":"招待爆米花或洋芋片","expiration":"自動展延","start_date":null,"shop_url":null,"contract_url":null,"address":"台北市大安區安和路二段211號"},"geometry":{"type":"Point","coordinates":[121.5502,25.026074]}},{"id":"5","type":"Feature","properties":{"status":"Active","class":"餐廳","subclass":"general_restaurant","name":"青沐初食","sub_name":null,"description":"平日9折優惠(不含套餐)，限持員工證本人使用","expiration":"自動展延","start_date":null,"shop_url":null,"contract_url":null,"address":"台北市大安區敦化南路二段265巷7號"},"geometry":{"type":"Point","coordinates":[121.549544,25.02548]}},{"id":"6","type":"Feature","properties":{"status":"Inactive","class":"餐廳","subclass":"burger","name":"漢堡王","sub_name":"敦化店","description":"提供套餐薯條升級\n早餐套餐咖啡升級研磨咖啡","expiration":"2022-10-31","start_date":null,"shop_url":null,"contract_url":null,"address":"台北市大安區敦化南路二段164號"},"geometry":{"type":"Point","coordinates":[121.548338,25.024428]}},{"id":"7","type":"Feature","properties":{"status":"Active","class":"餐廳","subclass":"general_restaurant","name":"西羅伐","sub_name":null,"description":"現職員工9折優惠","expiration":"自動展延","start_date":null,"shop_url":null,"contract_url":null,"address":"台北市大安區敦化南路二段146巷1號"},"geometry":{"type":"Point","coordinates":[121.548157,25.025538]}},{"id":"8","type":"Feature","properties":{"status":"Active","class":"餐廳","subclass":"japanese_restaurant","name":"竹鶴日本料理店","sub_name":null,"description":"9折優惠(現金消費)\n95折優惠(刷卡消費)","expiration":"自動展延","start_date":null,"shop_url":null,"contract_url":null,"address":"新竹縣竹北市光明一路175號1樓"},"geometry":{"type":"Point","coordinates":[121.014685,24.830345]}},{"id":"9","type":"Feature","properties":{"status":"Active","class":"餐廳","subclass":"general_restaurant","name":"彭家涼麵","sub_name":null,"description":"全品項9折（特惠組合除外）","expiration":"自動展延","start_date":null,"shop_url":null,"contract_url":null,"address":"台北市大安區嘉興街399號1樓"},"geometry":{"type":"Point","coordinates":[121.551145,25.021528]}},{"id":"10","type":"Feature","properties":{"status":"Inactive","class":"餐廳","subclass":"wine","name":"Le Chamber","sub_name":null,"description":"- 用餐2~4人送一份蒜味薯條，4人以上送兩份蒜味薯條 (星期日,二,三,四需滿低消$500/位, 其他為$1000/位)\n- 25人包場75折 (兩小時, 包場費可折抵餐費)","expiration":"2023-04-13","start_date":null,"shop_url":null,"contract_url":null,"address":"台北市大安區敦化南路二段152號之一"},"geometry":{"type":"Point","coordinates":[121.548167,25.025189]}},{"id":"11","type":"Feature","properties":{"status":"Active","class":"餐廳","subclass":"general_restaurant","name":"炊牛王牛肉麵","sub_name":null,"description":"每項單品減10元(小菜除外)","expiration":"自動展延","start_date":null,"shop_url":null,"contract_url":null,"address":"新竹市東區新莊街111號"},"geometry":{"type":"Point","coordinates":[121.016717,24.786749]}},{"id":"12","type":"Feature","properties":{"status":"Inactive","class":"餐廳","subclass":"general_restaurant","name":"金色三麥","sub_name":"台北美麗華店","description":"LINE\r會員消費贈送\r雙倍點數","expiration":"2022-12-31","start_date":null,"shop_url":null,"contract_url":null,"address":"台北市中山區敬業三路20號5F"},"geometry":{"type":"Point","coordinates":[121.556712,25.082926]}},{"id":"13","type":"Feature","properties":{"status":"Inactive","class":"餐廳","subclass":"general_restaurant","name":"金色三麥","sub_name":"台北京站店","description":"LINE\r會員消費贈送\r雙倍點數","expiration":"2022-12-31","start_date":null,"shop_url":null,"contract_url":null,"address":"台北市大同區承德路一段1號4F"},"geometry":{"type":"Point","coordinates":[121.516784,25.04909]}},{"id":"14","type":"Feature","properties":{"status":"Inactive","class":"餐廳","subclass":"general_restaurant","name":"金色三麥","sub_name":"信義誠品店","description":"LINE\r會員消費贈送\r雙倍點數","expiration":"2022-12-31","start_date":null,"shop_url":null,"contract_url":null,"address":"台北市信義區松高路11號"},"geometry":{"type":"Point","coordinates":[121.565242,25.039515]}},{"id":"15","type":"Feature","properties":{"status":"Inactive","class":"餐廳","subclass":"general_restaurant","name":"金色三麥","sub_name":"南港CITYLINK店","description":"LINE\r會員消費贈送\r雙倍點數","expiration":"2022-12-31","start_date":null,"shop_url":null,"contract_url":null,"address":"台北市南港區忠孝東路七段299號C棟1樓"},"geometry":{"type":"Point","coordinates":[121.604792,25.052364]}},{"id":"16","type":"Feature","properties":{"status":"Inactive","class":"餐廳","subclass":"general_restaurant","name":"金色三麥","sub_name":"板橋大遠百店","description":"LINE\r會員消費贈送\r雙倍點數","expiration":"2022-12-31","start_date":null,"shop_url":null,"contract_url":null,"address":"新北市板橋區新站路28號9樓"},"geometry":{"type":"Point","coordinates":[121.466627,25.013622]}},{"id":"17","type":"Feature","properties":{"status":"Inactive","class":"餐廳","subclass":"general_restaurant","name":"金色三麥","sub_name":"新莊晶冠店","description":"LINE\r會員消費贈送\r雙倍點數","expiration":"2022-12-31","start_date":null,"shop_url":null,"contract_url":null,"address":"新北市新莊區五工路66號"},"geometry":{"type":"Point","coordinates":[121.458702,25.063818]}},{"id":"18","type":"Feature","properties":{"status":"Inactive","class":"餐廳","subclass":"general_restaurant","name":"金色三麥","sub_name":"新竹巨城店PARK15","description":"LINE\r會員消費贈送\r雙倍點數","expiration":"2022-12-31","start_date":null,"shop_url":null,"contract_url":null,"address":"新竹市東區中央路229號7樓"},"geometry":{"type":"Point","coordinates":[120.974931,24.809666]}},{"id":"19","type":"Feature","properties":{"status":"Inactive","class":"餐廳","subclass":"general_restaurant","name":"金色三麥","sub_name":"中壢SOGO店","description":"LINE\r會員消費贈送\r雙倍點數","expiration":"2022-12-31","start_date":null,"shop_url":null,"contract_url":null,"address":"桃園市中壢區元化路357號8樓"},"geometry":{"type":"Point","coordinates":[121.223533,24.962685]}},{"id":"20","type":"Feature","properties":{"status":"Inactive","class":"餐廳","subclass":"general_restaurant","name":"金色三麥","sub_name":"台中市政店","description":"LINE\r會員消費贈送\r雙倍點數","expiration":"2022-12-31","start_date":null,"shop_url":null,"contract_url":null,"address":"台中市西屯區市政路20號"},"geometry":{"type":"Point","coordinates":[120.645394,24.156264]}},{"id":"21","type":"Feature","properties":{"status":"Inactive","class":"餐廳","subclass":"general_restaurant","name":"金色三麥","sub_name":"台中勤美店","description":"LINE\r會員消費贈送\r雙倍點數","expiration":"2022-12-31","start_date":null,"shop_url":null,"contract_url":null,"address":"台中市西區公益路68號B1"},"geometry":{"type":"Point","coordinates":[120.663866,24.151278]}},{"id":"22","type":"Feature","properties":{"status":"Inactive","class":"餐廳","subclass":"general_restaurant","name":"金色三麥","sub_name":"台南南紡店","description":"LINE\r會員消費贈送\r雙倍點數","expiration":"2022-12-31","start_date":null,"shop_url":null,"contract_url":null,"address":"台南市東區中華東路一段366號5F"},"geometry":{"type":"Point","coordinates":[120.233334,22.990772]}},{"id":"23","type":"Feature","properties":{"status":"Inactive","class":"餐廳","subclass":"general_restaurant","name":"金色三麥","sub_name":"高雄義大店","description":"LINE\r會員消費贈送\r雙倍點數","expiration":"2022-12-31","start_date":null,"shop_url":null,"contract_url":null,"address":"高雄市大樹區學城路一段12號A區5F"},"geometry":{"type":"Point","coordinates":[120.406614,22.729832]}},{"id":"24","type":"Feature","properties":{"status":"Inactive","class":"餐廳","subclass":"general_restaurant","name":"金色三麥","sub_name":"漢神巨蛋店","description":"LINE\r會員消費贈送\r雙倍點數","expiration":"2022-12-31","start_date":null,"shop_url":null,"contract_url":null,"address":"高雄市左營區博愛二路777號4樓"},"geometry":{"type":"Point","coordinates":[120.303118,22.670155]}},{"id":"25","type":"Feature","properties":{"status":"Inactive","class":"餐廳","subclass":"general_restaurant","name":"UMAMI 金色三麥","sub_name":"微風南山店","description":"1. 門市內用消費享 原價 9 折優惠。\n2. LINE 會員消費贈送雙倍點數。\n3. 以上 優惠 二擇 一， 套餐 與其他優 惠皆不併用","expiration":"2022-12-31","start_date":null,"shop_url":null,"contract_url":null,"address":"台北市信義區松智路17號7樓"},"geometry":{"type":"Point","coordinates":[121.565774,25.034434]}},{"id":"26","type":"Feature","properties":{"status":"Inactive","class":"餐廳","subclass":"cafe","name":"Petit Doux 微兜 Café","sub_name":"永康店","description":"1. 門市內用消費單筆滿 500 元 不含套餐 ))，即贈主廚私房菜乙份，本優惠 不累贈 。\r\n2. 與其它優惠皆不併用。","expiration":"2022-12-31","start_date":null,"shop_url":null,"contract_url":null,"address":"台北市大安區信義路二段 198 巷 7-3 號1樓"},"geometry":{"type":"Point","coordinates":[121.530682,25.032665]}},{"id":"27","type":"Feature","properties":{"status":"Inactive","class":"餐廳","subclass":"cafe","name":"Petit Doux 微兜 Café","sub_name":"北車京站店","description":"1. 門市內用消費單筆滿 500 元 不含套餐 ))，即贈主廚私房菜乙份，本優惠 不累贈 。\r\n2. 與其它優惠皆不併用。","expiration":"2022-12-31","start_date":null,"shop_url":null,"contract_url":null,"address":"台北市大同區承德路一段1號1樓"},"geometry":{"type":"Point","coordinates":[121.516784,25.04909]}},{"id":"28","type":"Feature","properties":{"status":"Inactive","class":"餐廳","subclass":"cafe","name":"Petit Doux 微兜 Café","sub_name":"小碧潭店","description":"1. 門市內用消費單筆滿 500 元 不含套餐 ))，即贈主廚私房菜乙份，本優惠 不累贈 。\r\n2. 與其它優惠皆不併用。","expiration":"2022-12-31","start_date":null,"shop_url":null,"contract_url":null,"address":"新北市新店區中央路157號5樓"},"geometry":{"type":"Point","coordinates":[121.530551,24.972512]}},{"id":"29","type":"Feature","properties":{"status":"Inactive","class":"餐廳","subclass":"cafe","name":"Petit Doux 微兜 Café","sub_name":"SOGO忠孝店","description":"1. 門市內用消費單筆滿 500 元 不含套餐 ))，即贈主廚私房菜乙份，本優惠 不累贈 。\r\n2. 與其它優惠皆不併用。","expiration":"2022-12-31","start_date":null,"shop_url":null,"contract_url":null,"address":"台北市忠孝東路四段45號11樓"},"geometry":{"type":"Point","coordinates":[121.544883,25.041902]}},{"id":"30","type":"Feature","properties":{"status":"Inactive","class":"餐廳","subclass":"cafe","name":"Petit Doux 微兜 Café","sub_name":"漢神巨蛋店","description":"1. 門市內用消費單筆滿 500 元 不含套餐 ))，即贈主廚私房菜乙份，本優惠 不累贈 。\r\n2. 與其它優惠皆不併用。","expiration":"2022-12-31","start_date":null,"shop_url":null,"contract_url":null,"address":"高雄市左營區博愛二路777號4樓"},"geometry":{"type":"Point","coordinates":[120.303118,22.670155]}},{"id":"31","type":"Feature","properties":{"status":"Inactive","class":"餐廳","subclass":"cake","name":"BAC cake sweets","sub_name":"台北站前凱薩門市","description":"1. 購買 6 吋以上生日蛋糕享 9 折優惠，如需宅配運費另計。\r\n2. 與其它優惠皆不併用","expiration":"2022-12-31","start_date":null,"shop_url":null,"contract_url":null,"address":"台北市中正區忠孝西路一段38號 "},"geometry":{"type":"Point","coordinates":[121.516436,25.046215]}},{"id":"32","type":"Feature","properties":{"status":"Inactive","class":"餐廳","subclass":"cake","name":"BAC cake sweets","sub_name":"台北忠孝光復門市","description":"1. 購買 6 吋以上生日蛋糕享 9 折優惠，如需宅配運費另計。\r\n2. 與其它優惠皆不併用","expiration":"2022-12-31","start_date":null,"shop_url":null,"contract_url":null,"address":"台北市光復南路240巷23號"},"geometry":{"type":"Point","coordinates":[121.556467,25.040658]}},{"id":"33","type":"Feature","properties":{"status":"Inactive","class":"餐廳","subclass":"cake","name":"BAC cake sweets","sub_name":"台北忠孝Sogo門市","description":"1. 購買 6 吋以上生日蛋糕享 9 折優惠，如需宅配運費另計。\r\n2. 與其它優惠皆不併用","expiration":"2022-12-31","start_date":null,"shop_url":null,"contract_url":null,"address":"台北市忠孝東路四段45號B1"},"geometry":{"type":"Point","coordinates":[121.544883,25.041902]}},{"id":"34","type":"Feature","properties":{"status":"Inactive","class":"餐廳","subclass":"cake","name":"BAC cake sweets","sub_name":"台中勤美門市","description":"1. 購買 6 吋以上生日蛋糕享 9 折優惠，如需宅配運費另計。\r\n2. 與其它優惠皆不併用","expiration":"2022-12-31","start_date":null,"shop_url":null,"contract_url":null,"address":"台中市西區公益路68號１樓"},"geometry":{"type":"Point","coordinates":[120.663866,24.151278]}},{"id":"35","type":"Feature","properties":{"status":"Inactive","class":"餐廳","subclass":"general_restaurant","name":"咖哩樹","sub_name":"台北京站店","description":"憑員工識別證 消費享免費升級套餐","expiration":"2022-12-31","start_date":null,"shop_url":null,"contract_url":null,"address":"台北市大同區承德路一段1號B3F (食樂大道)"},"geometry":{"type":"Point","coordinates":[121.516784,25.04909]}},{"id":"36","type":"Feature","properties":{"status":"Inactive","class":"餐廳","subclass":"general_restaurant","name":"咖哩樹","sub_name":"板橋環球店","description":"憑員工識別證 消費享免費升級套餐","expiration":"2022-12-31","start_date":null,"shop_url":null,"contract_url":null,"address":"新北市板橋區縣民大道二段七號B1F (美食天地)"},"geometry":{"type":"Point","coordinates":[121.463635,25.01433]}},{"id":"37","type":"Feature","properties":{"status":"Inactive","class":"餐廳","subclass":"general_restaurant","name":"咖哩樹","sub_name":"桃園A19店","description":"憑員工識別證 消費享免費升級套餐","expiration":"2022-12-31","start_date":null,"shop_url":null,"contract_url":null,"address":"桃園市中壢區高鐵南路二段352號3F (運動 ‧ 品食尚)"},"geometry":{"type":"Point","coordinates":[121.202935,25.002445]}},{"id":"38","type":"Feature","properties":{"status":"Inactive","class":"餐廳","subclass":"general_restaurant","name":"咖哩樹","sub_name":"中壢SOGO店","description":"憑員工識別證 消費享免費升級套餐","expiration":"2022-12-31","start_date":null,"shop_url":null,"contract_url":null,"address":"桃園市中壢區元化路357號B1F (美食廣場)"},"geometry":{"type":"Point","coordinates":[121.223533,24.962685]}},{"id":"39","type":"Feature","properties":{"status":"Active","class":"餐廳","subclass":"drink","name":"悠悠河畔","sub_name":null,"description":"a.單杯飲品95折\nb.十杯飲品以上9折","expiration":"自動展延","start_date":null,"shop_url":null,"contract_url":null,"address":"台北市大安區樂業街50號1樓"},"geometry":{"type":"Point","coordinates":[121.549751,25.022852]}},{"id":"40","type":"Feature","properties":{"status":"Active","class":"餐廳","subclass":"drink","name":"山焙","sub_name":"和平臥龍店","description":"a. 自取或外帶：中杯冷飲享免費升級大杯；熱飲享95折優惠。                                                                            \nb. 外送：買10杯送1杯（以最低價飲品做為贈送）                                                                            \n以上優惠須於訂購時主動出示（自取電話告知）員工識別證;現場及自取購買每張識別證可購買上限為5杯為限。","expiration":"自動展延","start_date":null,"shop_url":null,"contract_url":null,"address":"台北市大安區和平東路二段363號"},"geometry":{"type":"Point","coordinates":[121.546419,25.024856]}},{"id":"41","type":"Feature","properties":{"status":"Active","class":"餐廳","subclass":"drink","name":"茶山小","sub_name":null,"description":"a. 全品項9折優惠\nb. 提前一天預訂外送滿300，88折\nc. 提前一天預訂自取滿300，87折","expiration":"自動展延","start_date":null,"shop_url":null,"contract_url":null,"address":"台北市大安區和平東路三段123號"},"geometry":{"type":"Point","coordinates":[121.551688,25.024562]}},{"id":"42","type":"Feature","properties":{"status":"Active","class":"餐廳","subclass":"bread","name":"麥將軍烘焙","sub_name":null,"description":"消費滿百 出示貴公司相關證件 打九折， 優惠內容不包含餐盒、節慶禮盒、特價商品及不與活動併用。","expiration":"自動展延","start_date":null,"shop_url":null,"contract_url":null,"address":"台北市大安區和平東路二段285號"},"geometry":{"type":"Point","coordinates":[121.544524,25.024957]}},{"id":"43","type":"Feature","properties":{"status":"Active","class":"商店","subclass":"shop","name":"台灣好漁","sub_name":null,"description":"85折起","expiration":"自動展延","start_date":null,"shop_url":null,"contract_url":null,"address":"台北市中山區民權東路三段35號"},"geometry":{"type":"Point","coordinates":[121.542263,25.062645]}},{"id":"44","type":"Feature","properties":{"status":"Active","class":"餐廳","subclass":"cake","name":"WUnique Pâtisserie","sub_name":null,"description":"1. 當日消費滿600元，送當日小點心一份，送完為止\n2. 預訂蛋糕金額滿2000元，享95折優惠","expiration":"自動展延","start_date":null,"shop_url":null,"contract_url":null,"address":"台北市大安區安和路二段184巷10號"},"geometry":{"type":"Point","coordinates":[121.549858,25.024992]}},{"id":"45","type":"Feature","properties":{"status":"Active","class":"商店","subclass":"shop","name":"蜂蜜皇后","sub_name":null,"description":"95折","expiration":"自動展延","start_date":null,"shop_url":null,"contract_url":null,"address":"新北市淡水區中山北路一段92號"},"geometry":{"type":"Point","coordinates":[121.552577,25.041661]}},{"id":"46","type":"Feature","properties":{"status":"Active","class":"餐廳","subclass":"general_restaurant","name":"魏姐包心粉圓","sub_name":null,"description":"9折","expiration":"自動展延","start_date":null,"shop_url":null,"contract_url":null,"address":"新竹市光復路一段360-3號"},"geometry":{"type":"Point","coordinates":[121.017563,24.783541]}},{"id":"47","type":"Feature","properties":{"status":"Active","class":"商店","subclass":"shop","name":"follow蜜","sub_name":null,"description":"飲品每杯 折扣5元\n蜂蜜商品(瓶裝) 9折優惠","expiration":"自動展延","start_date":null,"shop_url":null,"contract_url":null,"address":"新竹縣竹北市嘉豐十一路二段10號"},"geometry":{"type":"Point","coordinates":[121.034741,24.80712]}},{"id":"48","type":"Feature","properties":{"status":"Active","class":"餐廳","subclass":"drink","name":"一手私藏世界紅茶","sub_name":"新竹光復店","description":"9折","expiration":"自動展延","start_date":null,"shop_url":null,"contract_url":null,"address":"新竹市東區光復路一段362-15號"},"geometry":{"type":"Point","coordinates":[121.016116,24.784092]}},{"id":"49","type":"Feature","properties":{"status":"Active","class":"餐廳","subclass":"general_restaurant","name":"好樹早午餐","sub_name":null,"description":"到店用餐出示識別證享有優惠價格","expiration":"自動展延","start_date":null,"shop_url":null,"contract_url":null,"address":"台北市基隆路二段285號"},"geometry":{"type":"Point","coordinates":[121.549772,25.021644]}},{"id":"50","type":"Feature","properties":{"status":"Active","class":"餐廳","subclass":"drink","name":"日日良選","sub_name":"科技大樓店","description":"飲品每杯 折扣5元，現場購買及外送皆適用","expiration":"自動展延","start_date":null,"shop_url":null,"contract_url":null,"address":"台北市大安區和平東路二段311巷3號"},"geometry":{"type":"Point","coordinates":[121.545203,25.024982]}},{"id":"51","type":"Feature","properties":{"status":"Active","class":"餐廳","subclass":"drink","name":"羽上茶飲","sub_name":null,"description":"買10杯送一杯\n20杯以上折95折~85折\n(欲外送請透過電話or Line點餐方能享折扣)","expiration":"自動展延","start_date":null,"shop_url":null,"contract_url":null,"address":"台北市信義區莊敬路302號"},"geometry":{"type":"Point","coordinates":[121.563111,25.028365]}},{"id":"52","type":"Feature","properties":{"status":"Active","class":"餐廳","subclass":"cafe","name":"CAFE!N ","sub_name":null,"description":"一. 外送優惠：\n1. 單筆訂購咖啡與餐食金額滿 1,000 元享有 9 折企業會員優惠與三公里免運費外送服務。\n2. 單筆訂購咖啡與餐食金額滿 3,000 元享有 8 折企業會員優惠與三公里免運費外送服務。\n3. 企業會員訂單限定飲品與餐食 ,外送距離若超過 500 公尺,訂單請於至少 3 小時前下單。\n二. 咖啡周邊團購：\n1. 濾掛咖啡/咖啡豆，訂滿 10 組享 9 折優惠與三公里免運費外送服務。\n2. 濾掛咖啡/咖啡豆，訂滿 20 組享 8 折優惠與三公里免運費外送服務。\n\n訂購專線：（02）8771-38611 或 Line ID: cafein01","expiration":"自動展延","start_date":null,"shop_url":null,"contract_url":null,"address":"台北市大安區忠孝東路四段 50-2 號"},"geometry":{"type":"Point","coordinates":[121.544985,25.041392]}},{"id":"53","type":"Feature","properties":{"status":"Active","class":"餐廳","subclass":"general_restaurant","name":"一生懸雞","sub_name":null,"description":"外送雞排65元(其餘原價)\n來店消費全面九折","expiration":"自動展延","start_date":null,"shop_url":null,"contract_url":null,"address":"新竹市東區光復路499號"},"geometry":{"type":"Point","coordinates":[121.014157,24.784452]}},{"id":"54","type":"Feature","properties":{"status":"Active","class":"餐廳","subclass":"cafe","name":"COFFEE LOVER's PLANET ","sub_name":"敦北店","description":"憑趨勢識別證至門市消費\n1. 可享全面9折優惠(包含購買咖啡豆)\n2. 加入門市會員,每次消費可享點數雙倍送","expiration":"自動展延","start_date":null,"shop_url":null,"contract_url":null,"address":"台北市大安區敦化南路1段246號號 B1"},"geometry":{"type":"Point","coordinates":[121.548441,25.040146]}},{"id":"55","type":"Feature","properties":{"status":"Active","class":"餐廳","subclass":"cafe","name":"COFFEE LOVER's PLANET","sub_name":"新竹店","description":"憑趨勢識別證至門市消費\n1. 可享全面9折優惠(包含購買咖啡豆)\n2. 加入門市會員,每次消費可享點數雙倍送","expiration":"自動展延","start_date":null,"shop_url":null,"contract_url":null,"address":"新竹市東區中央路239號"},"geometry":{"type":"Point","coordinates":[120.976204,24.809614]}},{"id":"56","type":"Feature","properties":{"status":"Active","class":"餐廳","subclass":"cafe","name":"24磅咖啡羽球","sub_name":null,"description":"a.\t單品咖啡豆享9折優惠                                                                            \r\nb.\t飲品享10元優惠                                                                            \r\nc.\t羽球拍、羽球鞋、服飾享95折優惠                                                                            \r","expiration":"自動展延","start_date":null,"shop_url":null,"contract_url":null,"address":"台北市中正區寧波東街3-1號"},"geometry":{"type":"Point","coordinates":[121.519735,25.03223]}},{"id":"57","type":"Feature","properties":{"status":"Active","class":"餐廳","subclass":"drink","name":"Swiido 走糖 萬隆示範店","sub_name":null,"description":"1.\t首次外送總金額享85折優惠，免收運費且不限定外送距離。\r\n（門市活動優惠不能同時使用）\r\n2.\t第二次外送總金額享85折優惠，免收運費但折扣後之消費金額須達外送距離之規定金額。\r\n（外送達標金額依外送距離不同而異，門市活動優惠不能同時使用）\r\n3.\t凡貴公司人員至現場消費即可享有9折優惠。\r\n（門市活動優惠不能同時使用）\r","expiration":"自動展延","start_date":null,"shop_url":null,"contract_url":null,"address":"台北市文山區羅斯福路五段211巷18號"},"geometry":{"type":"Point","coordinates":[121.539306,25.002281]}},{"id":"58","type":"Feature","properties":{"status":"Active","class":"餐廳","subclass":"drink","name":"走糖手搖","sub_name":null,"description":"1.\t首次外送總金額享85折優惠，免收運費且不限定外送距離。\r\n（門市活動優惠不能同時使用）\r\n2.\t第二次外送總金額享85折優惠，免收運費但折扣後之消費金額須達外送距離之規定金額。\r\n（外送達標金額依外送距離不同而異，門市活動優惠不能同時使用）\r\n3.\t凡貴公司人員至現場消費即可享有9折優惠。\r\n（門市活動優惠不能同時使用）\r","expiration":"自動展延","start_date":null,"shop_url":null,"contract_url":null,"address":"台北市中山區長安東路二段258號"},"geometry":{"type":"Point","coordinates":[121.543666,25.048158]}},{"id":"59","type":"Feature","properties":{"status":"Inactive","class":"餐廳","subclass":"general_restaurant","name":"饗食天堂","sub_name":"台北大直店","description":"平日週一至週四，午餐/下午餐/晚餐\n平日週五，午餐/下午餐\n20 人以下 98 折優惠，20 人(含)以上 95 折優惠。\n*優惠計算限成人消費，服務費不打折","expiration":"2022-12-30","start_date":null,"shop_url":null,"contract_url":null,"address":"台北市中山區樂群三路218號4樓"},"geometry":{"type":"Point","coordinates":[121.55779,25.082498]}},{"id":"60","type":"Feature","properties":{"status":"Inactive","class":"餐廳","subclass":"general_restaurant","name":"饗食天堂","sub_name":"台北信義店","description":"平日週一至週四，午餐/下午餐/晚餐\n平日週五，午餐/下午餐\n20 人以下 98 折優惠，20 人(含)以上 95 折優惠。\n*優惠計算限成人消費，服務費不打折","expiration":"2022-12-30","start_date":null,"shop_url":null,"contract_url":null,"address":"台北市信義區松壽路12號6樓"},"geometry":{"type":"Point","coordinates":[121.566021,25.035668]}},{"id":"61","type":"Feature","properties":{"status":"Inactive","class":"餐廳","subclass":"general_restaurant","name":"饗食天堂","sub_name":"台北京站店","description":"平日週一至週四，午餐/下午餐/晚餐\n平日週五，午餐/下午餐\n20 人以下 98 折優惠，20 人(含)以上 95 折優惠。\n*優惠計算限成人消費，服務費不打折","expiration":"2022-12-30","start_date":null,"shop_url":null,"contract_url":null,"address":"台北市大同區承德路一段1號4樓"},"geometry":{"type":"Point","coordinates":[121.516784,25.04909]}},{"id":"62","type":"Feature","properties":{"status":"Inactive","class":"餐廳","subclass":"general_restaurant","name":"饗食天堂","sub_name":"新北板橋","description":"平日週一至週四，午餐/下午餐/晚餐\n平日週五，午餐/下午餐\n20 人以下 98 折優惠，20 人(含)以上 95 折優惠。\n*優惠計算限成人消費，服務費不打折","expiration":"2022-12-30","start_date":null,"shop_url":null,"contract_url":null,"address":"新北市板橋區中山路一段152號12樓"},"geometry":{"type":"Point","coordinates":[121.464344,25.011113]}},{"id":"63","type":"Feature","properties":{"status":"Inactive","class":"餐廳","subclass":"general_restaurant","name":"饗食天堂","sub_name":"桃園新光店","description":"平日週一至週四，午餐/下午餐/晚餐\n平日週五，午餐/下午餐\n20 人以下 98 折優惠，20 人(含)以上 95 折優惠。\n*優惠計算限成人消費，服務費不打折","expiration":"2022-12-30","start_date":null,"shop_url":null,"contract_url":null,"address":"桃園市桃園區中正路19號11樓"},"geometry":{"type":"Point","coordinates":[121.312568,24.98973]}},{"id":"64","type":"Feature","properties":{"status":"Inactive","class":"餐廳","subclass":"general_restaurant","name":"饗食天堂","sub_name":"桃園中壢SOGO店","description":"平日週一至週四，午餐/下午餐/晚餐\n平日週五，午餐/下午餐\n20 人以下 98 折優惠，20 人(含)以上 95 折優惠。\n*優惠計算限成人消費，服務費不打折","expiration":"2022-12-30","start_date":null,"shop_url":null,"contract_url":null,"address":"桃園市中壢區元化路357號9樓"},"geometry":{"type":"Point","coordinates":[121.223533,24.962685]}},{"id":"65","type":"Feature","properties":{"status":"Inactive","class":"餐廳","subclass":"general_restaurant","name":"饗食天堂","sub_name":"新竹大遠百店","description":"平日週一至週四，午餐/下午餐/晚餐\n平日週五，午餐/下午餐\n20 人以下 98 折優惠，20 人(含)以上 95 折優惠。\n*優惠計算限成人消費，服務費不打折","expiration":"2022-12-30","start_date":null,"shop_url":null,"contract_url":null,"address":"新竹市東區西大路323號9樓"},"geometry":{"type":"Point","coordinates":[120.965211,24.802185]}},{"id":"66","type":"Feature","properties":{"status":"Inactive","class":"餐廳","subclass":"general_restaurant","name":"饗食天堂","sub_name":"台中大遠百店","description":"平日週一至週四，午餐/下午餐/晚餐\n平日週五，午餐/下午餐\n20 人以下 98 折優惠，20 人(含)以上 95 折優惠。\n*優惠計算限成人消費，服務費不打折","expiration":"2022-12-30","start_date":null,"shop_url":null,"contract_url":null,"address":"台中市西屯區台灣大道三段251號11"},"geometry":{"type":"Point","coordinates":[120.644576,24.16467]}},{"id":"67","type":"Feature","properties":{"status":"Inactive","class":"餐廳","subclass":"general_restaurant","name":"饗食天堂","sub_name":"台南西門店","description":"平日週一至週四，午餐/下午餐/晚餐\n平日週五，午餐/下午餐\n20 人以下 98 折優惠，20 人(含)以上 95 折優惠。\n*優惠計算限成人消費，服務費不打折","expiration":"2022-12-30","start_date":null,"shop_url":null,"contract_url":null,"address":"台南市中西區西門路一段658-1號B2樓"},"geometry":{"type":"Point","coordinates":[120.198947,22.986943]}},{"id":"68","type":"Feature","properties":{"status":"Inactive","class":"餐廳","subclass":"general_restaurant","name":"饗食天堂","sub_name":"高雄三多店","description":"平日週一至週四，午餐/下午餐/晚餐\n平日週五，午餐/下午餐\n20 人以下 98 折優惠，20 人(含)以上 95 折優惠。\n*優惠計算限成人消費，服務費不打折","expiration":"2022-12-30","start_date":null,"shop_url":null,"contract_url":null,"address":"高雄市苓雅區三多四路21號11樓"},"geometry":{"type":"Point","coordinates":[120.303949,22.612841]}},{"id":"69","type":"Feature","properties":{"status":"Inactive","class":"餐廳","subclass":"general_restaurant","name":"果然匯","sub_name":"台北明曜店","description":"平日週一至週四，午餐/下午餐/晚餐\n平日週五，午餐/下午餐\n20 人以下 98 折優惠，20 人(含)以上 95 折優惠。\n*優惠計算限成人消費，服務費不打折","expiration":"2022-12-30","start_date":null,"shop_url":null,"contract_url":null,"address":"台北市忠孝東路四段200號12樓"},"geometry":{"type":"Point","coordinates":[121.552113,25.04124]}},{"id":"70","type":"Feature","properties":{"status":"Inactive","class":"餐廳","subclass":"general_restaurant","name":"果然匯","sub_name":"新北板橋店","description":"平日週一至週四，午餐/下午餐/晚餐\n平日週五，午餐/下午餐\n20 人以下 98 折優惠，20 人(含)以上 95 折優惠。\n*優惠計算限成人消費，服務費不打折","expiration":"2022-12-30","start_date":null,"shop_url":null,"contract_url":null,"address":"新北市板橋區中山路一段152號11樓"},"geometry":{"type":"Point","coordinates":[121.464344,25.011113]}},{"id":"71","type":"Feature","properties":{"status":"Inactive","class":"餐廳","subclass":"general_restaurant","name":"果然匯","sub_name":"桃園統領店","description":"平日週一至週四，午餐/下午餐/晚餐\n平日週五，午餐/下午餐\n20 人以下 98 折優惠，20 人(含)以上 95 折優惠。\n*優惠計算限成人消費，服務費不打折","expiration":"2022-12-30","start_date":null,"shop_url":null,"contract_url":null,"address":"桃園市桃園區中正路61號7樓"},"geometry":{"type":"Point","coordinates":[121.312523,24.991112]}},{"id":"72","type":"Feature","properties":{"status":"Inactive","class":"餐廳","subclass":"general_restaurant","name":"果然匯","sub_name":"新竹竹北店","description":"平日週一至週四，午餐/下午餐/晚餐\n平日週五，午餐/下午餐\n20 人以下 98 折優惠，20 人(含)以上 95 折優惠。\n*優惠計算限成人消費，服務費不打折","expiration":"2022-12-30","start_date":null,"shop_url":null,"contract_url":null,"address":"新竹縣竹北市莊敬北路18號8F"},"geometry":{"type":"Point","coordinates":[121.023259,24.822609]}},{"id":"73","type":"Feature","properties":{"status":"Inactive","class":"餐廳","subclass":"general_restaurant","name":"果然匯","sub_name":"高雄夢時代店","description":"平日週一至週四，午餐/下午餐/晚餐\n平日週五，午餐/下午餐\n20 人以下 98 折優惠，20 人(含)以上 95 折優惠。\n*優惠計算限成人消費，服務費不打折","expiration":"2022-12-30","start_date":null,"shop_url":null,"contract_url":null,"address":"高雄市前鎮區中華五路789號3樓"},"geometry":{"type":"Point","coordinates":[120.30819,22.595526]}},{"id":"74","type":"Feature","properties":{"status":"Inactive","class":"餐廳","subclass":"general_restaurant","name":"小福利","sub_name":"中和環球店","description":"平日週一至週四，午餐/晚餐\n平日週五，午餐\n20 人以下 98 折優惠，20 人(含)以上 95 折優惠。\n*優惠計算限成人消費，服務費不打折","expiration":"2022-12-30","start_date":null,"shop_url":null,"contract_url":null,"address":"新北市中和區中山路三段122號4F"},"geometry":{"type":"Point","coordinates":[121.475689,25.006077]}},{"id":"75","type":"Feature","properties":{"status":"Inactive","class":"餐廳","subclass":"general_restaurant","name":"小福利","sub_name":"竹北遠百店","description":"平日週一至週四，午餐/晚餐\n平日週五，午餐\n20 人以下 98 折優惠，20 人(含)以上 95 折優惠。\n*優惠計算限成人消費，服務費不打折","expiration":"2022-12-30","start_date":null,"shop_url":null,"contract_url":null,"address":"新竹縣竹北市莊敬北路18號8F"},"geometry":{"type":"Point","coordinates":[121.023259,24.822609]}},{"id":"76","type":"Feature","properties":{"status":"Inactive","class":"餐廳","subclass":"general_restaurant","name":"開飯","sub_name":"台北京站店","description":"平日週一至週五，每筆消費贈乙道精選餐點\n*限內用，本餐廳設有個人低消金額\n*用餐人數每滿 12 人再加贈乙道精選餐點，以此類推\n*精選餐點依門市實際供應為主(最高價值 380 元)","expiration":"2022-12-30","start_date":null,"shop_url":null,"contract_url":null,"address":"台北市大同區承德路一段1號B3"},"geometry":{"type":"Point","coordinates":[121.516784,25.04909]}},{"id":"77","type":"Feature","properties":{"status":"Inactive","class":"餐廳","subclass":"general_restaurant","name":"開飯","sub_name":"台北市府店","description":"平日週一至週五，每筆消費贈乙道精選餐點\n*限內用，本餐廳設有個人低消金額\n*用餐人數每滿 12 人再加贈乙道精選餐點，以此類推\n*精選餐點依門市實際供應為主(最高價值 380 元)","expiration":"2022-12-30","start_date":null,"shop_url":null,"contract_url":null,"address":"台北市忠孝東路五段8號7F"},"geometry":{"type":"Point","coordinates":[121.565417,25.040865]}},{"id":"78","type":"Feature","properties":{"status":"Inactive","class":"餐廳","subclass":"general_restaurant","name":"開飯","sub_name":"台北南港店","description":"平日週一至週五，每筆消費贈乙道精選餐點\n*限內用，本餐廳設有個人低消金額\n*用餐人數每滿 12 人再加贈乙道精選餐點，以此類推\n*精選餐點依門市實際供應為主(最高價值 380 元)","expiration":"2022-12-30","start_date":null,"shop_url":null,"contract_url":null,"address":"台北市南港區經貿二路186-1號C棟3樓"},"geometry":{"type":"Point","coordinates":[121.614969,25.058743]}},{"id":"79","type":"Feature","properties":{"status":"Inactive","class":"餐廳","subclass":"general_restaurant","name":"開飯","sub_name":"台北敦化店","description":"平日週一至週五，每筆消費贈乙道精選餐點\n*限內用，本餐廳設有個人低消金額\n*用餐人數每滿 12 人再加贈乙道精選餐點，以此類推\n*精選餐點依門市實際供應為主(最高價值 380 元)","expiration":"2022-12-30","start_date":null,"shop_url":null,"contract_url":null,"address":"台北市敦化南路一段246號B2"},"geometry":{"type":"Point","coordinates":[121.548441,25.040146]}},{"id":"80","type":"Feature","properties":{"status":"Inactive","class":"餐廳","subclass":"general_restaurant","name":"開飯","sub_name":"台北微風南山店","description":"平日週一至週五，每筆消費贈乙道精選餐點\n*限內用，本餐廳設有個人低消金額\n*用餐人數每滿 12 人再加贈乙道精選餐點，以此類推\n*精選餐點依門市實際供應為主(最高價值 380 元)","expiration":"2022-12-30","start_date":null,"shop_url":null,"contract_url":null,"address":"台北市信義區松智路17號5樓"},"geometry":{"type":"Point","coordinates":[121.565774,25.034434]}},{"id":"81","type":"Feature","properties":{"status":"Inactive","class":"餐廳","subclass":"general_restaurant","name":"開飯","sub_name":"新北永和店","description":"平日週一至週五，每筆消費贈乙道精選餐點\n*限內用，本餐廳設有個人低消金額\n*用餐人數每滿 12 人再加贈乙道精選餐點，以此類推\n*精選餐點依門市實際供應為主(最高價值 380 元)","expiration":"2022-12-30","start_date":null,"shop_url":null,"contract_url":null,"address":"新北市永和區中山路一段238號B2"},"geometry":{"type":"Point","coordinates":[121.507645,25.007836]}},{"id":"82","type":"Feature","properties":{"status":"Inactive","class":"餐廳","subclass":"general_restaurant","name":"開飯","sub_name":"新北板橋店","description":"平日週一至週五，每筆消費贈乙道精選餐點\n*限內用，本餐廳設有個人低消金額\n*用餐人數每滿 12 人再加贈乙道精選餐點，以此類推\n*精選餐點依門市實際供應為主(最高價值 380 元)","expiration":"2022-12-30","start_date":null,"shop_url":null,"contract_url":null,"address":"新北市板橋區中山路一段152號13F "},"geometry":{"type":"Point","coordinates":[121.464344,25.011113]}},{"id":"83","type":"Feature","properties":{"status":"Inactive","class":"餐廳","subclass":"general_restaurant","name":"開飯","sub_name":"新北小碧潭店","description":"平日週一至週五，每筆消費贈乙道精選餐點\n*限內用，本餐廳設有個人低消金額\n*用餐人數每滿 12 人再加贈乙道精選餐點，以此類推\n*精選餐點依門市實際供應為主(最高價值 380 元)","expiration":"2022-12-30","start_date":null,"shop_url":null,"contract_url":null,"address":"新北市新店區中央路157號5樓"},"geometry":{"type":"Point","coordinates":[121.530551,24.972512]}},{"id":"84","type":"Feature","properties":{"status":"Inactive","class":"餐廳","subclass":"general_restaurant","name":"開飯","sub_name":"新北宏匯店","description":"平日週一至週五，每筆消費贈乙道精選餐點\n*限內用，本餐廳設有個人低消金額\n*用餐人數每滿 12 人再加贈乙道精選餐點，以此類推\n*精選餐點依門市實際供應為主(最高價值 380 元)","expiration":"2022-12-30","start_date":null,"shop_url":null,"contract_url":null,"address":"新北市新莊區新北大道四段3號B2"},"geometry":{"type":"Point","coordinates":[121.449451,25.059944]}},{"id":"85","type":"Feature","properties":{"status":"Inactive","class":"餐廳","subclass":"general_restaurant","name":"開飯","sub_name":"新北中和環球店","description":"平日週一至週五，每筆消費贈乙道精選餐點\n*限內用，本餐廳設有個人低消金額\n*用餐人數每滿 12 人再加贈乙道精選餐點，以此類推\n*精選餐點依門市實際供應為主(最高價值 380 元)","expiration":"2022-12-30","start_date":null,"shop_url":null,"contract_url":null,"address":"新北市中和區中山路三段122號4樓"},"geometry":{"type":"Point","coordinates":[121.475689,25.006077]}},{"id":"86","type":"Feature","properties":{"status":"Inactive","class":"餐廳","subclass":"general_restaurant","name":"開飯","sub_name":"桃園中壢店","description":"平日週一至週五，每筆消費贈乙道精選餐點\n*限內用，本餐廳設有個人低消金額\n*用餐人數每滿 12 人再加贈乙道精選餐點，以此類推\n*精選餐點依門市實際供應為主(最高價值 380 元)","expiration":"2022-12-30","start_date":null,"shop_url":null,"contract_url":null,"address":"桃園市中壢區元化路357號8F"},"geometry":{"type":"Point","coordinates":[121.223533,24.962685]}},{"id":"87","type":"Feature","properties":{"status":"Inactive","class":"餐廳","subclass":"general_restaurant","name":"開飯","sub_name":"桃園桃園店","description":"平日週一至週五，每筆消費贈乙道精選餐點\n*限內用，本餐廳設有個人低消金額\n*用餐人數每滿 12 人再加贈乙道精選餐點，以此類推\n*精選餐點依門市實際供應為主(最高價值 380 元)","expiration":"2022-12-30","start_date":null,"shop_url":null,"contract_url":null,"address":"桃園市桃園區中正路20號10樓"},"geometry":{"type":"Point","coordinates":[121.314076,24.989865]}},{"id":"88","type":"Feature","properties":{"status":"Inactive","class":"餐廳","subclass":"general_restaurant","name":"開飯","sub_name":"桃園台茂店","description":"平日週一至週五，每筆消費贈乙道精選餐點\n*限內用，本餐廳設有個人低消金額\n*用餐人數每滿 12 人再加贈乙道精選餐點，以此類推\n*精選餐點依門市實際供應為主(最高價值 380 元)","expiration":"2022-12-30","start_date":null,"shop_url":null,"contract_url":null,"address":"桃園市蘆竹區南崁路一段112號6樓"},"geometry":{"type":"Point","coordinates":[121.288383,25.053471]}},{"id":"89","type":"Feature","properties":{"status":"Inactive","class":"餐廳","subclass":"general_restaurant","name":"開飯","sub_name":"新竹巨城店","description":"平日週一至週五，每筆消費贈乙道精選餐點\n*限內用，本餐廳設有個人低消金額\n*用餐人數每滿 12 人再加贈乙道精選餐點，以此類推\n*精選餐點依門市實際供應為主(最高價值 380 元)","expiration":"2022-12-30","start_date":null,"shop_url":null,"contract_url":null,"address":"新竹市東區中央路229號7F "},"geometry":{"type":"Point","coordinates":[120.974931,24.809666]}},{"id":"90","type":"Feature","properties":{"status":"Inactive","class":"餐廳","subclass":"general_restaurant","name":"開飯","sub_name":"新竹竹北光明店","description":"平日週一至週五，每筆消費贈乙道精選餐點\n*限內用，本餐廳設有個人低消金額\n*用餐人數每滿 12 人再加贈乙道精選餐點，以此類推\n*精選餐點依門市實際供應為主(最高價值 380 元)","expiration":"2022-12-30","start_date":null,"shop_url":null,"contract_url":null,"address":"新竹縣竹北市光明一路256號"},"geometry":{"type":"Point","coordinates":[121.014692,24.830667]}},{"id":"91","type":"Feature","properties":{"status":"Inactive","class":"餐廳","subclass":"general_restaurant","name":"開飯","sub_name":"新竹竹北遠百店","description":"平日週一至週五，每筆消費贈乙道精選餐點\n*限內用，本餐廳設有個人低消金額\n*用餐人數每滿 12 人再加贈乙道精選餐點，以此類推\n*精選餐點依門市實際供應為主(最高價值 380 元)","expiration":"2022-12-30","start_date":null,"shop_url":null,"contract_url":null,"address":"新竹縣竹北市莊敬北路18號6F"},"geometry":{"type":"Point","coordinates":[121.023259,24.822609]}},{"id":"92","type":"Feature","properties":{"status":"Inactive","class":"餐廳","subclass":"general_restaurant","name":"開飯","sub_name":"台中大遠百店","description":"平日週一至週五，每筆消費贈乙道精選餐點\n*限內用，本餐廳設有個人低消金額\n*用餐人數每滿 12 人再加贈乙道精選餐點，以此類推\n*精選餐點依門市實際供應為主(最高價值 380 元)","expiration":"2022-12-30","start_date":null,"shop_url":null,"contract_url":null,"address":"台中市西屯區台灣大道三段251號11F"},"geometry":{"type":"Point","coordinates":[120.644576,24.16467]}},{"id":"93","type":"Feature","properties":{"status":"Inactive","class":"餐廳","subclass":"general_restaurant","name":"開飯","sub_name":"台中文心店","description":"平日週一至週五，每筆消費贈乙道精選餐點\n*限內用，本餐廳設有個人低消金額\n*用餐人數每滿 12 人再加贈乙道精選餐點，以此類推\n*精選餐點依門市實際供應為主(最高價值 380 元)","expiration":"2022-12-30","start_date":null,"shop_url":null,"contract_url":null,"address":"台中市南屯區文心南路289號6樓"},"geometry":{"type":"Point","coordinates":[120.646095,24.130092]}},{"id":"94","type":"Feature","properties":{"status":"Inactive","class":"餐廳","subclass":"general_restaurant","name":"開飯","sub_name":"台中中友店","description":"平日週一至週五，每筆消費贈乙道精選餐點\n*限內用，本餐廳設有個人低消金額\n*用餐人數每滿 12 人再加贈乙道精選餐點，以此類推\n*精選餐點依門市實際供應為主(最高價值 380 元)","expiration":"2022-12-30","start_date":null,"shop_url":null,"contract_url":null,"address":"台中市北區三民路三段161號A棟11樓"},"geometry":{"type":"Point","coordinates":[120.6847533,24.15218643]}},{"id":"95","type":"Feature","properties":{"status":"Inactive","class":"餐廳","subclass":"general_restaurant","name":"開飯","sub_name":"台南南紡店","description":"平日週一至週五，每筆消費贈乙道精選餐點\n*限內用，本餐廳設有個人低消金額\n*用餐人數每滿 12 人再加贈乙道精選餐點，以此類推\n*精選餐點依門市實際供應為主(最高價值 380 元)","expiration":"2022-12-30","start_date":null,"shop_url":null,"contract_url":null,"address":"台南市東區中華東路一段366號B1"},"geometry":{"type":"Point","coordinates":[120.233334,22.990772]}},{"id":"96","type":"Feature","properties":{"status":"Inactive","class":"餐廳","subclass":"general_restaurant","name":"開飯","sub_name":"高雄夢時代店","description":"平日週一至週五，每筆消費贈乙道精選餐點\n*限內用，本餐廳設有個人低消金額\n*用餐人數每滿 12 人再加贈乙道精選餐點，以此類推\n*精選餐點依門市實際供應為主(最高價值 380 元)","expiration":"2022-12-30","start_date":null,"shop_url":null,"contract_url":null,"address":"高雄市前鎮區中華五路789號3樓"},"geometry":{"type":"Point","coordinates":[120.30819,22.595526]}},{"id":"97","type":"Feature","properties":{"status":"Inactive","class":"餐廳","subclass":"general_restaurant","name":"開飯","sub_name":"高雄左營店","description":"平日週一至週五，每筆消費贈乙道精選餐點\n*限內用，本餐廳設有個人低消金額\n*用餐人數每滿 12 人再加贈乙道精選餐點，以此類推\n*精選餐點依門市實際供應為主(最高價值 380 元)","expiration":"2022-12-30","start_date":null,"shop_url":null,"contract_url":null,"address":"高雄市左營區高鐵路115號4樓"},"geometry":{"type":"Point","coordinates":[120.309647,22.688039]}},{"id":"98","type":"Feature","properties":{"status":"Inactive","class":"餐廳","subclass":"general_restaurant","name":"開飯","sub_name":"高雄義享店","description":"平日週一至週五，每筆消費贈乙道精選餐點\n*限內用，本餐廳設有個人低消金額\n*用餐人數每滿 12 人再加贈乙道精選餐點，以此類推\n*精選餐點依門市實際供應為主(最高價值 380 元)","expiration":"2022-12-30","start_date":null,"shop_url":null,"contract_url":null,"address":"高雄市鼓山區大順一路115號7樓"},"geometry":{"type":"Point","coordinates":[120.306597,22.656568]}},{"id":"99","type":"Feature","properties":{"status":"Inactive","class":"餐廳","subclass":"general_restaurant","name":"饗泰多","sub_name":"台北松高店","description":"平日週一至週五，每人贈甜點乙份\n*限內用，本餐廳設有個人低消金額","expiration":"2022-12-30","start_date":null,"shop_url":null,"contract_url":null,"address":"台北市信義區松高路16號"},"geometry":{"type":"Point","coordinates":[121.567277,25.038729]}},{"id":"100","type":"Feature","properties":{"status":"Inactive","class":"餐廳","subclass":"general_restaurant","name":"饗泰多","sub_name":"新莊宏匯店","description":"平日週一至週五，每人贈甜點乙份\n*限內用，本餐廳設有個人低消金額","expiration":"2022-12-30","start_date":null,"shop_url":null,"contract_url":null,"address":"新北市新莊區新北大道四段3號"},"geometry":{"type":"Point","coordinates":[121.449451,25.059944]}},{"id":"101","type":"Feature","properties":{"status":"Inactive","class":"餐廳","subclass":"general_restaurant","name":"饗泰多","sub_name":"永和比漾店","description":"平日週一至週五，每人贈甜點乙份\n*限內用，本餐廳設有個人低消金額","expiration":"2022-12-30","start_date":null,"shop_url":null,"contract_url":null,"address":"新北市永和區中山路一段238號"},"geometry":{"type":"Point","coordinates":[121.507645,25.007836]}},{"id":"102","type":"Feature","properties":{"status":"Inactive","class":"餐廳","subclass":"general_restaurant","name":"饗泰多","sub_name":"桃園八德店","description":"平日週一至週五，每人贈甜點乙份\n*限內用，本餐廳設有個人低消金額","expiration":"2022-12-30","start_date":null,"shop_url":null,"contract_url":null,"address":"桃園市八德區介壽路一段728號"},"geometry":{"type":"Point","coordinates":[121.29907,24.965038]}},{"id":"103","type":"Feature","properties":{"status":"Inactive","class":"餐廳","subclass":"general_restaurant","name":"饗泰多","sub_name":"桃園統領店","description":"平日週一至週五，每人贈甜點乙份\n*限內用，本餐廳設有個人低消金額","expiration":"2022-12-30","start_date":null,"shop_url":null,"contract_url":null,"address":"桃園市桃園區中正路61號 "},"geometry":{"type":"Point","coordinates":[121.312523,24.991112]}},{"id":"104","type":"Feature","properties":{"status":"Inactive","class":"餐廳","subclass":"general_restaurant","name":"饗泰多","sub_name":"新竹大遠百店","description":"平日週一至週五，每人贈甜點乙份\n*限內用，本餐廳設有個人低消金額","expiration":"2022-12-30","start_date":null,"shop_url":null,"contract_url":null,"address":"新竹市東區西大路323號"},"geometry":{"type":"Point","coordinates":[120.965211,24.802185]}},{"id":"105","type":"Feature","properties":{"status":"Inactive","class":"餐廳","subclass":"general_restaurant","name":"饗泰多","sub_name":"竹北遠百店","description":"平日週一至週五，每人贈甜點乙份\n*限內用，本餐廳設有個人低消金額","expiration":"2022-12-30","start_date":null,"shop_url":null,"contract_url":null,"address":"新竹縣竹北市莊敬北路18號 "},"geometry":{"type":"Point","coordinates":[121.023259,24.822609]}},{"id":"106","type":"Feature","properties":{"status":"Inactive","class":"餐廳","subclass":"general_restaurant","name":"饗泰多","sub_name":"高雄義享店","description":"平日週一至週五，每人贈甜點乙份\n*限內用，本餐廳設有個人低消金額","expiration":"2022-12-30","start_date":null,"shop_url":null,"contract_url":null,"address":"高雄市鼓山區大順一路115號7樓"},"geometry":{"type":"Point","coordinates":[120.306597,22.656568]}},{"id":"107","type":"Feature","properties":{"status":"Inactive","class":"餐廳","subclass":"general_restaurant","name":"饗泰多","sub_name":"高雄夢時代店","description":"平日週一至週五，每人贈甜點乙份\n*限內用，本餐廳設有個人低消金額","expiration":"2022-12-30","start_date":null,"shop_url":null,"contract_url":null,"address":"高雄市前鎮區中華五路789號"},"geometry":{"type":"Point","coordinates":[120.30819,22.595526]}},{"id":"108","type":"Feature","properties":{"status":"Inactive","class":"餐廳","subclass":"general_restaurant","name":"真珠台灣家味","sub_name":"京站店","description":"平日週一至週五，每人贈甜點乙份\n*限內用，本餐廳設有個人低消金額","expiration":"2022-12-30","start_date":null,"shop_url":null,"contract_url":null,"address":"台北市大同區承德路一段1號"},"geometry":{"type":"Point","coordinates":[121.516784,25.04909]}},{"id":"109","type":"Feature","properties":{"status":"Inactive","class":"餐廳","subclass":"general_restaurant","name":"真珠台灣家味","sub_name":"永和店","description":"平日週一至週五，每人贈甜點乙份\n*限內用，本餐廳設有個人低消金額","expiration":"2022-12-30","start_date":null,"shop_url":null,"contract_url":null,"address":"新北市永和區中山路一段238號"},"geometry":{"type":"Point","coordinates":[121.507645,25.007836]}},{"id":"110","type":"Feature","properties":{"status":"Inactive","class":"商店","subclass":"shop","name":"孩子玩伴玩具批發廣場","sub_name":"竹北店","description":"會員價再95折","expiration":"2022-12-31","start_date":null,"shop_url":null,"contract_url":null,"address":"新竹縣竹北市縣政二路157號"},"geometry":{"type":"Point","coordinates":[121.017725,24.830763]}},{"id":"111","type":"Feature","properties":{"status":"Inactive","class":"商店","subclass":"shop","name":"孩子玩伴玩具批發廣場","sub_name":"新竹店","description":"會員價再95折","expiration":"2022-12-31","start_date":null,"shop_url":null,"contract_url":null,"address":"新竹市香山區牛埔東路188號"},"geometry":{"type":"Point","coordinates":[120.946839,24.797457]}},{"id":"112","type":"Feature","properties":{"status":"Inactive","class":"商店","subclass":"shop","name":"孩子玩伴玩具批發廣場","sub_name":"頭份店","description":"會員價再95折","expiration":"2022-12-31","start_date":null,"shop_url":null,"contract_url":null,"address":"苗栗縣頭份市中華路1381號"},"geometry":{"type":"Point","coordinates":[120.915011,24.693815]}},{"id":"113","type":"Feature","properties":{"status":"Active","class":"商店","subclass":"shop","name":"舒心足體養生概念館","sub_name":null,"description":"憑員工證，現金消費一律九折\n憑身分證及員工證，當月壽星及好友(不限人數)，現金消費八折","expiration":"自動展延","start_date":null,"shop_url":null,"contract_url":null,"address":"台北市大安區和平東路三段66之2號"},"geometry":{"type":"Point","coordinates":[121.549753,25.024367]}},{"id":"114","type":"Feature","properties":{"status":"Active","class":"運動","subclass":"sports","name":"高豐運動事業","sub_name":null,"description":"國外滑雪與國內外登山健行,SUP,單車等戶外旅遊活動均以VIP價格優惠\n門市之滑雪與運動相關裝備器材均以VIP價格優惠\n瑜珈,TRX健身,有氧運動及單車等相關室內課程及講座皆以VIP價格優惠\n以上所有產品及商品之特價優惠品則不再折扣優惠","expiration":"自動展延","start_date":null,"shop_url":null,"contract_url":null,"address":"台北市八德路三段2號10樓"},"geometry":{"type":"Point","coordinates":[121.549295,25.04786]}},{"id":"115","type":"Feature","properties":{"status":"Active","class":"運動","subclass":"sports","name":"4SC CrossFit | 四季健身","sub_name":null,"description":"a.購買半年以上會籍($15000)，贈送營養師現場飲食諮詢服務乙次，或物理治療師動作健康評估乙次(價值1980)\nb.購買12堂以上個人教練課程($20160)，贈送CrossFit團體課程6堂($3000)\nc.合約期間，趨勢員工享有自主訓練入場費用5折($300>$150)","expiration":"自動展延","start_date":null,"shop_url":null,"contract_url":null,"address":"新北市永和區永貞路149號B1"},"geometry":{"type":"Point","coordinates":[121.515958,25.004034]}},{"id":"116","type":"Feature","properties":{"status":"Active","class":"居家","subclass":"home","name":"BoConcept","sub_name":"台北旗艦店","description":"進口家具 正價品 再享九折\nhttps://www.boconcept.com/zh-tw/","expiration":"自動展延","start_date":null,"shop_url":null,"contract_url":null,"address":"台北市內湖區新湖一路185號1樓"},"geometry":{"type":"Point","coordinates":[121.578575,25.059691]}},{"id":"117","type":"Feature","properties":{"status":"Active","class":"居家","subclass":"home","name":"BoConcept","sub_name":"桃園特力店","description":"進口家具 正價品 再享九折\nhttps://www.boconcept.com/zh-tw/","expiration":"自動展延","start_date":null,"shop_url":null,"contract_url":null,"address":"桃園市蘆竹區中正"},"geometry":null}]}